[
{"name": "Michael Onstead ", "location": "Sacramento, CA", "address": "730 Alhambra Blvd", "city": " Sacramento", "state": " CA", "zipcode": " 95816"},
{"name": "David Franco ", "location": "Diamond Bar, CA", "address": "618 N. Diamond Bar Blvd.", "city": " Diamond Bar", "state": " CA", "zipcode": " 91765"},
{"name": "Jonathan Sands", "location": "Beverly Hills, CA", "address": "301 N Canon Dr Ste E", "city": " Beverly Hills", "state": " CA", "zipcode": " 90210"},
{"name": "James Suarez ", "location": "Marina Del Rey, CA", "address": "13274 Fiji Way Suite 100", "city": " Marina Del Rey", "state": " CA", "zipcode": " 90292"},
{"name": "Brad Holmes ", "location": "Los Angeles, CA", "address": "1660 Hillhurst Ave.", "city": " Los Angeles", "state": " CA", "zipcode": " 90027"},
{"name": "Noe Blanco ", "location": "LOS ANGELES, CA", "address": "5556 S CENTINELA  AVE", "city": " LOS ANGELES", "state": " CA", "zipcode": " 90066"},
{"name": "David Kelmenson ", "location": "Los Angeles, CA", "address": "11726 San Vicente Boulevard Suite 350", "city": " Los Angeles", "state": " CA", "zipcode": " 90049"},
{"name": "Jimmy Heckenberg ", "location": "Beverly Hills, CA", "address": "202 North Canon Drive", "city": " Beverly Hills", "state": " CA", "zipcode": " 90210"},
{"name": "Alison Warren ", "location": "Elk Grove, CA", "address": "9280 W Stockton Blvd Ste 120", "city": " Elk Grove", "state": " CA", "zipcode": " 95758"},
{"name": "Walker", "location": "Beverly Hills, CA", "address": "9696 Wilshire Blvd.", "city": " Beverly Hills", "state": " CA", "zipcode": " 90212"},
{"name": "Andrew Belcher ", "location": "Beverly Hills, CA", "address": "468 N Camden Dr.", "city": " Beverly Hills", "state": " CA", "zipcode": " 90210"},
{"name": "Mamdouh Elalami ", "location": ",", "address": "", "city": "", "state": "", "zipcode": ""},
{"name": "Ernie Carswell ", "location": "Beverly Hills, CA", "address": "338 N. Canon Dr. Penthouse Suite", "city": " Beverly Hills", "state": " CA", "zipcode": " 90210"},
{"name": "Eugene Ridenour ", "location": "Los Angeles, CA", "address": "1714 Hillhurst Avenue", "city": " Los Angeles", "state": " CA", "zipcode": " 90027"},
{"name": "F. Ron Smith ", "location": "Los Angeles, CA", "address": "11726 San Vicente Blvd.", "city": " Los Angeles", "state": " CA", "zipcode": " 90049"},
{"name": "Iberri and Associates-Realty Source", "location": ",", "address": "", "city": "", "state": "", "zipcode": ""},
{"name": "Rande Gray", "location": "West Hollywood, CA", "address": "9000 W. Sunset Blvd.", "city": " West Hollywood", "state": " CA", "zipcode": " 90069"},
{"name": "Jerry Carew ", "location": "Manhattan Beach, CA", "address": "1716 Manhattan Beach Blvd.", "city": " Manhattan Beach", "state": " CA", "zipcode": " 90266"},
{"name": "Daina Burness ", "location": ",", "address": "", "city": "", "state": "", "zipcode": ""},
{"name": "Victoria Leas ", "location": "Sacramento, CA", "address": "2277 Fair Oaks Blvd Ste 440", "city": " Sacramento", "state": " CA", "zipcode": " 95825"}
]